[{"_id":"65d253b187cb19fbdc7bd3da","spotId":"01BS8Q3ZFlLWq3FtB6UU","name":"Weaver Street Market","latitude":35.77844374395934,"longitude":-78.64537190864566,"region":"Warehouse District","spotSize":1,"reservations":[{"reservationId":"lua8om77-b0yycf","startTime":"2024-03-27T15:00:00.000Z","endTime":"2024-03-27T16:00:00.000Z","performerId":"NI98wJTY9vZRVbCbHqd3iPuLQ223","_id":"66047cf3c38146c118b81c7f"}],"__v":7},{"_id":"65d253b187cb19fbdc7bd3de","spotId":"2BmEtmKgHDvD15N1YwLl","name":"Presidents Statue","latitude":35.78036342959826,"longitude":-78.63853441677458,"region":"Capital District","spotSize":3,"reservations":[],"__v":2},{"_id":"65d253b187cb19fbdc7bd3df","spotId":"2tnuhutovCU5h3zRFQbJ","name":"Smoky Hollows","latitude":35.78645258120108,"longitude":-78.64504539673194,"region":"Glenwood Avenue","spotSize":5,"reservations":[],"__v":1},{"_id":"65d253b187cb19fbdc7bd3e0","spotId":"3xGv7gyIgT4gn6hTsDGQ","name":"Market Hall","latitude":35.776153848467025,"longitude":-78.63618031110403,"region":"Moores Square","spotSize":2,"reservations":[],"__v":1},{"_id":"65d253b187cb19fbdc7bd3e5","spotId":"EB4drRopi1u1cHLekXQM","name":"Nash Square","latitude":35.77774562139919,"longitude":-78.64266981171015,"region":"Fayetteville Street","spotSize":4,"reservations":[],"__v":4},{"_id":"65d253b187cb19fbdc7bd3e6","spotId":"FGKLt0f9HR0f3pPGZZYN","name":"Lichtin Plaza","latitude":35.77197849523059,"longitude":-78.63956667594496,"region":"Fayetteville Street","spotSize":5,"reservations":[],"__v":0},{"_id":"65d253b187cb19fbdc7bd3e8","spotId":"Id04gbFYJNRs0p2HDFxK","name":"Hedron","latitude":35.77953328187577,"longitude":-78.64332992502251,"region":"Fayetteville Street","spotSize":1,"reservations":[],"__v":1},{"_id":"65d253b187cb19fbdc7bd3e7","spotId":"I51RGieNiSFDwrXbummS","name":"The Bell","latitude":35.78233025430769,"longitude":-78.63873279076108,"region":"Capital District","spotSize":2,"reservations":[],"__v":0},{"_id":"65d253b187cb19fbdc7bd3ea","spotId":"KiIKud9kdkwtTkRAXMZE","name":"Playground @ Moores Square","latitude":35.77729298648609,"longitude":-78.63539602076096,"region":"Moores Square","spotSize":4,"reservations":[],"__v":3},{"_id":"65d253b187cb19fbdc7bd3e9","spotId":"KUmCTbDqocu9nshddx44","name":"The Raleigh Depot","latitude":35.77531753349104,"longitude":-78.64490771896938,"region":"Warehouse District","spotSize":2,"reservations":[],"__v":1},{"_id":"65d253b187cb19fbdc7bd3ed","spotId":"OiMaozB0aK1ECFkypDjf","name":"The Globe","latitude":35.782433662456924,"longitude":-78.64026625895883,"region":"Capital District","spotSize":5,"reservations":[],"__v":1},{"_id":"65d253b187cb19fbdc7bd3f1","spotId":"RQcWLwgIb9fooEdxQap4","name":"Exchange Plaza","latitude":35.77757915725352,"longitude":-78.63896698972496,"region":"Fayetteville Street","spotSize":3,"reservations":[],"__v":0},{"_id":"65d253b187cb19fbdc7bd3f3","spotId":"UwJH3WQiQ8Te9eWV9f9H","name":"Glenwood TV","latitude":35.78025683528338,"longitude":-78.64827058594942,"region":"Glenwood Avenue","spotSize":3,"reservations":[],"__v":1},{"_id":"65d253b187cb19fbdc7bd3f5","spotId":"XMo7AYD1SHKkPSdnWRXe","name":"The Acorn","latitude":35.77393736251632,"longitude":-78.63930896534055,"region":"Fayetteville Street","spotSize":4,"reservations":[],"__v":1},{"_id":"65d253b187cb19fbdc7bd3fa","spotId":"gnltz7oGbONnWtXVSiJG","name":"Shadows","latitude":35.788224079671714,"longitude":-78.64704913757083,"region":"Glenwood Avenue","spotSize":1,"reservations":[],"__v":0},{"_id":"65d253b187cb19fbdc7bd3fb","spotId":"hTLfBjnXsrdLCwdzrdV2","name":"Union Station Plaza","latitude":35.77734854285317,"longitude":-78.64657542102067,"region":"Warehouse District","spotSize":5,"reservations":[],"__v":4},{"_id":"65d253b187cb19fbdc7bd400","spotId":"vLfKtAr7HWQEZkWi3OMn","name":"Irish Corner","latitude":35.784630068451456,"longitude":-78.64749187315383,"region":"Glenwood Avenue","spotSize":3,"reservations":[],"__v":1},{"_id":"65d253b187cb19fbdc7bd401","spotId":"vjXscM16UqmNfP4DxLjF","name":"Circles","latitude":35.77927307698581,"longitude":-78.63634496625018,"region":"Moores Square","spotSize":4,"reservations":[],"__v":0},{"_id":"65d253b187cb19fbdc7bd402","spotId":"wE3ugu8HRUWNvx0sqWSO","name":"400H Building","latitude":35.78124380274504,"longitude":-78.64577882515994,"region":"Glenwood Avenue","spotSize":3,"reservations":[],"__v":1},{"_id":"65d253b187cb19fbdc7bd3f0","spotId":"RKhtn3Gr3WYmf4cyaaTT","name":"Courthouse Plaza","latitude":35.77630653688347,"longitude":-78.63955515954572,"region":"Fayetteville Street","spotSize":4,"reservations":[],"__v":5},{"_id":"65d253b187cb19fbdc7bd404","spotId":"zCwOtcmTUaZ05EoPbRaM","name":"Raleigh Convention Center","latitude":35.773447460205745,"longitude":-78.64074796545513,"region":"Fayetteville Street","spotSize":5,"reservations":[],"__v":2}]